[
  {
    "id": "gov-spot-1",
    "name": "여의도 한강공원 멀티플라자 광장",
    "address": "서울 영등포구 여의동로 330",
    "latitude": 37.5284,
    "longitude": 126.9320,
    "description": "🟢 청년층/소외계층 신청 우대 구역 | 관리기관: 서울시 한강사업본부 | 운영시간: 14:00 ~ 22:00"
  },
  {
    "id": "gov-spot-2",
    "name": "홍대 걷고싶은거리 버스킹 광장",
    "address": "서울 마포구 어울마당로 115",
    "latitude": 37.5562,
    "longitude": 126.9225,
    "description": "🟢 청년창업 지원구역 | 관리기관: 서울 마포구청 | 운영시간: 11:00 ~ 21:00"
  },
  {
    "id": "gov-spot-3",
    "name": "강남 아이파크 아파트 알뜰장터",
    "address": "서울 서초구 사평대로 290",
    "latitude": 37.4982,
    "longitude": 127.0276,
    "description": "⚠️ 관리사무소 사전 협의 필요 | 아파트 부지 내 전용 장터 | 운영시간: 11:00 ~ 19:00",
    "isApartment": true
  },
  {
    "id": "gov-spot-4",
    "name": "청계천 광통교 남단 광장",
    "address": "서울 중구 남대문로9길 40",
    "latitude": 37.5688,
    "longitude": 126.9802,
    "description": "합법 점용 지정 구역 | 관리기관: 서울시청 문화사업단 | 운영시간: 17:00 ~ 22:00"
  },
  {
    "id": "gov-spot-5",
    "name": "반포 한강공원 세빛섬 달빛광장",
    "address": "서울 서초구 신반포로11길 40",
    "latitude": 37.5113,
    "longitude": 126.9965,
    "description": "🟢 한강 야시장 공식 연계구역 | 관리기관: 서울시 한강사업본부 | 운영시간: 16:00 ~ 23:00"
  },
  {
    "id": "gov-spot-6",
    "name": "서울숲공원 야외광장 진입로",
    "address": "서울 성동구 동부간선도로 273",
    "latitude": 37.5443,
    "longitude": 127.0374,
    "description": "공원 점용 허가구역 | 관리기관: 성동구 도시공원과 | 운영시간: 10:00 ~ 20:00"
  },
  {
    "id": "gov-spot-7",
    "name": "뚝섬 한강공원 수변광장 뒷편",
    "address": "서울 광진구 자양동 704",
    "latitude": 37.5298,
    "longitude": 127.0700,
    "description": "합법 점용 지정 구역 | 관리기관: 서울시 한강사업본부 | 운영시간: 13:00 ~ 22:00"
  },
  {
    "id": "gov-spot-8",
    "name": "망원 한강공원 선착장 인근",
    "address": "서울 마포구 마포나루길 467",
    "latitude": 37.5557,
    "longitude": 126.8943,
    "description": "망원 수변 특화구역 | 관리기관: 서울시 한강사업본부 | 운영시간: 14:00 ~ 21:00"
  },
  {
    "id": "gov-spot-9",
    "name": "이촌 한강공원 인라인스케이트장 옆",
    "address": "서울 용산구 이촌로72길 62",
    "latitude": 37.5180,
    "longitude": 126.9635,
    "description": "공원 레저 연계 스팟 | 관리기관: 서울시 한강사업본부 | 운영시간: 12:00 ~ 20:00"
  },
  {
    "id": "gov-spot-10",
    "name": "상암 월드컵공원 평화의 광장",
    "address": "서울 마포구 월드컵로 291",
    "latitude": 37.5684,
    "longitude": 126.8988,
    "description": "월드컵 경기 연계구역 | 관리기관: 서울시 서부공원녹지사업소 | 운영시간: 10:00 ~ 21:00"
  },
  {
    "id": "gov-spot-11",
    "name": "어린이대공원 후문 주차 광장",
    "address": "서울 광진구 능동로 216",
    "latitude": 37.5492,
    "longitude": 127.0818,
    "description": "가족단위 테마 상권 | 관리기관: 서울시설공단 | 운영시간: 09:00 ~ 19:00"
  },
  {
    "id": "gov-spot-12",
    "name": "북서울꿈의숲 서문 진입 광장",
    "address": "서울 강북구 월계로 173",
    "latitude": 37.6206,
    "longitude": 127.0428,
    "description": "북부 문화 휴양 스팟 | 관리기관: 서울시 푸른도시여가국 | 운영시간: 11:00 ~ 20:00"
  },
  {
    "id": "gov-spot-13",
    "name": "올림픽공원 평화의 문 광장 야외",
    "address": "서울 송파구 올림픽로 424",
    "latitude": 37.5173,
    "longitude": 127.1209,
    "description": "체육행사 연계 합법구역 | 관리기관: 국민체육진흥공단 | 운영시간: 10:00 ~ 22:00"
  },
  {
    "id": "gov-spot-14",
    "name": "신촌 연세로 차없는거리 진입광장",
    "address": "서울 서대문구 신촌동 15",
    "latitude": 37.5583,
    "longitude": 126.9366,
    "description": "대학가 청년창업 구역 | 관리기관: 서울 서대문구청 | 운영시간: 12:00 ~ 22:00"
  },
  {
    "id": "gov-spot-15",
    "name": "동대문 디자인 플라자 DDP 남측광장",
    "address": "서울 중구 을지로 281",
    "latitude": 37.5668,
    "longitude": 127.0094,
    "description": "동대문 패션특구 축제구역 | 관리기관: 서울디자인재단 | 운영시간: 16:00 ~ 23:00"
  },
  {
    "id": "gov-spot-16",
    "name": "대학로 마로니에공원 야외무대 주변",
    "address": "서울 종로구 대학로 104",
    "latitude": 37.5815,
    "longitude": 127.0022,
    "description": "문화예술공연 특화 합법구역 | 관리기관: 서울 종로구청 | 운영시간: 12:00 ~ 21:30"
  },
  {
    "id": "gov-spot-17",
    "name": "일산 호수공원 한울광장 수변로",
    "address": "경기 고양시 일산동구 호수로 595",
    "latitude": 37.6582,
    "longitude": 126.7645,
    "description": "꽃박람회 관광 활성화 스팟 | 관리기관: 경기 고양시청 | 운영시간: 10:00 ~ 21:00"
  },
  {
    "id": "gov-spot-18",
    "name": "수원 화성행궁 앞 대형 광장",
    "address": "경기 수원시 팔달구 정조로 825",
    "latitude": 37.2828,
    "longitude": 127.0135,
    "description": "🟢 청년층/소외계층 신청 우대 구역 | 관리기관: 경기 수원시청 | 운영시간: 11:00 ~ 22:00"
  },
  {
    "id": "gov-spot-19",
    "name": "송도 센트럴파크 잔디광장 부근",
    "address": "인천 연수구 컨벤시아대로 160",
    "latitude": 37.3916,
    "longitude": 126.6385,
    "description": "인천 경제자유구역 지정스팟 | 관리기관: 인천 경제자유구역청 | 운영시간: 11:00 ~ 20:00"
  },
  {
    "id": "gov-spot-20",
    "name": "분당 시범단지 한양아파트 목요장터",
    "address": "경기 성남시 분당구 중앙공원로 20",
    "latitude": 37.3788,
    "longitude": 127.1478,
    "description": "⚠️ 관리사무소 사전 협의 필요 | 매주 목요일 아파트 알뜰장 | 운영시간: 10:00 ~ 19:00",
    "isApartment": true
  },
  {
    "id": "gov-spot-21",
    "name": "과천 서울대공원 매표소 인근 광장",
    "address": "경기 과천시 대공원광장로 102",
    "latitude": 37.4278,
    "longitude": 127.0175,
    "description": "동물원/놀이공원 관광 상권 | 관리기관: 서울대공원 관리사무소 | 운영시간: 09:00 ~ 18:00"
  },
  {
    "id": "gov-spot-22",
    "name": "가평 자라섬 서도 진입 잔디광장",
    "address": "경기 가평군 가평읍 자라섬로 60",
    "latitude": 37.8205,
    "longitude": 127.5235,
    "description": "자라섬 페스티벌 지정 푸드존 | 관리기관: 경기 가평군청 | 운영시간: 11:00 ~ 23:00"
  },
  {
    "id": "gov-spot-23",
    "name": "수원 광교호수공원 거울못 주변",
    "address": "경기 수원시 영통구 광교호수로 165",
    "latitude": 37.2845,
    "longitude": 127.0655,
    "description": "🟢 청년층/소외계층 신청 우대 구역 | 관리기관: 수원시 영통구청 | 운영시간: 12:00 ~ 21:00"
  },
  {
    "id": "gov-spot-24",
    "name": "부천 중앙공원 야외음악당 뒷편",
    "address": "경기 부천시 소향로 162",
    "latitude": 37.5028,
    "longitude": 126.7648,
    "description": "문화예술 활성화 시범구역 | 관리기관: 경기 부천시청 | 운영시간: 10:00 ~ 20:00"
  },
  {
    "id": "gov-spot-25",
    "name": "시흥 배곧생명공원 전망대 앞",
    "address": "경기 시흥시 배곧2로 25",
    "latitude": 37.3725,
    "longitude": 126.7215,
    "description": "해안 낙조관람 나들이 상권 | 관리기관: 경기 시흥시청 | 운영시간: 13:00 ~ 21:00"
  },
  {
    "id": "gov-spot-26",
    "name": "안산 대부도 방아머리해변 진입로",
    "address": "경기 안산시 단원구 대부황금로 112",
    "latitude": 37.2982,
    "longitude": 126.5925,
    "description": "관광 유원지 주말 특화 상권 | 관리기관: 안산시 단원구청 | 운영시간: 10:00 ~ 22:00"
  },
  {
    "id": "gov-spot-27",
    "name": "파주 임진각 평화누리공원 잔디광장",
    "address": "경기 파주시 임진각로 148-40",
    "latitude": 37.8925,
    "longitude": 126.7415,
    "description": "안보관광 특수 지정구역 | 관리기관: 경기 파주시청 | 운영시간: 09:00 ~ 18:00"
  },
  {
    "id": "gov-spot-28",
    "name": "부산 해운대 해수욕장 진입광장",
    "address": "부산 해운대구 우동 1417",
    "latitude": 35.1587,
    "longitude": 129.1603,
    "description": "🟢 청년창업 우대구역 | 관리기관: 부산 해운대구청 | 운영시간: 11:00 ~ 22:00"
  },
  {
    "id": "gov-spot-29",
    "name": "부산 광안리 해수욕장 만남의 광장",
    "address": "부산 수영구 광안해변로 219",
    "latitude": 35.1531,
    "longitude": 129.1189,
    "description": "광안리 수변 문화공간 | 관리기관: 부산 수영구청 | 운영시간: 14:00 ~ 23:00"
  },
  {
    "id": "gov-spot-30",
    "name": "부산 태종대 유원지 전망대 주차장",
    "address": "부산 영도구 전망로 24",
    "latitude": 35.0526,
    "longitude": 129.0831,
    "description": "관광지 지정 합법 영업구역 | 관리기관: 부산시설공단 | 운영시간: 09:00 ~ 20:00"
  },
  {
    "id": "gov-spot-31",
    "name": "부산 사상 삼락생태공원 인근",
    "address": "부산 사상구 삼락동 29-45",
    "latitude": 35.1685,
    "longitude": 128.9745,
    "description": "낙동강 체육공원 나들이 상권 | 관리기관: 부산시 낙동강관리본부 | 운영시간: 10:00 ~ 19:00"
  },
  {
    "id": "gov-spot-32",
    "name": "대구 두류공원 야외음악당 인근 광장",
    "address": "대구 달서구 공원순환로 201",
    "latitude": 35.8502,
    "longitude": 128.5562,
    "description": "치맥 페스티벌 및 야외 문화지구 | 관리기관: 대구시 두류공원관리사무소 | 운영시간: 13:00 ~ 22:00"
  },
  {
    "id": "gov-spot-33",
    "name": "대구 신천 둔치 희망교 하부 체육공원",
    "address": "대구 남구 이천동 316-3",
    "latitude": 35.8454,
    "longitude": 128.6083,
    "description": "신천 수변 공원 산책로 | 관리기관: 대구시 신천사업소 | 운영시간: 11:00 ~ 21:00"
  },
  {
    "id": "gov-spot-34",
    "name": "대구 수성못 포켓무대 앞 보행광장",
    "address": "대구 수성구 두산동 512",
    "latitude": 35.8285,
    "longitude": 128.6189,
    "description": "🟢 청년 버스킹 연계구역 | 관리기관: 대구 수성구청 | 운영시간: 12:00 ~ 22:00"
  },
  {
    "id": "gov-spot-35",
    "name": "광주 중외공원 비엔날레 정문 광장",
    "address": "광주 북구 비엔날레로 111",
    "latitude": 35.1824,
    "longitude": 126.8835,
    "description": "광주 비엔날레 전시 특구 | 관리기관: 광주비엔날레재단 | 운영시간: 10:00 ~ 18:00"
  },
  {
    "id": "gov-spot-36",
    "name": "광주 국립아시아문화전당 하늘마당 야외",
    "address": "광주 동구 문화전당로 38",
    "latitude": 35.1472,
    "longitude": 126.9208,
    "description": "도심 속 잔디 피크닉 구역 | 관리기관: 국립아시아문화전당 | 운영시간: 14:00 ~ 22:00"
  },
  {
    "id": "gov-spot-37",
    "name": "대전 엑스포과학공원 한빛탑 대광장",
    "address": "대전 유성구 대덕대로 480",
    "latitude": 36.3765,
    "longitude": 127.3872,
    "description": "🟢 유성 온천 및 한빛탑 야간 특화존 | 관리기관: 대전관광공사 | 운영시간: 15:00 ~ 23:00"
  },
  {
    "id": "gov-spot-38",
    "name": "대전 유림공원 다목적 잔디광장",
    "address": "대전 유성구 어은로 57",
    "latitude": 36.3602,
    "longitude": 127.3595,
    "description": "유림 국화축제 연계구역 | 관리기관: 대전시 유성구청 | 운영시간: 10:00 ~ 20:00"
  },
  {
    "id": "gov-spot-39",
    "name": "울산 태화강 국가정원 안내소 주변",
    "address": "울산 중구 태화강국가정원길 154",
    "latitude": 35.5525,
    "longitude": 129.2985,
    "description": "태화강 국가정원 공식 지정구역 | 관리기관: 울산시 국가정원관 | 운영시간: 09:00 ~ 21:00"
  },
  {
    "id": "gov-spot-40",
    "name": "울산 대왕암공원 용굴 진입로 주차장",
    "address": "울산 동구 등대로 100",
    "latitude": 35.5034,
    "longitude": 129.4352,
    "description": "동해 해안 관광특구 | 관리기관: 울산 동구청 | 운영시간: 09:00 ~ 19:00"
  },
  {
    "id": "gov-spot-41",
    "name": "세종 세종호수공원 메인 무대섬 옆",
    "address": "세종특별자치시 다솜로 216",
    "latitude": 36.4984,
    "longitude": 127.2685,
    "description": "🟢 호수공원 지정 합법구역 | 관리기관: 세종특별자치시청 | 운영시간: 10:00 ~ 20:00"
  },
  {
    "id": "gov-spot-42",
    "name": "강원 춘천 의암공원 야외공연장 광장",
    "address": "강원 춘천시 스포츠타운길 383",
    "latitude": 37.8682,
    "longitude": 127.7025,
    "description": "의암호 자전거길 연계구역 | 관리기관: 강원 춘천시청 | 운영시간: 10:00 ~ 21:00"
  },
  {
    "id": "gov-spot-43",
    "name": "강원 강릉 경포해수욕장 중앙광장 주변",
    "address": "강원 강릉시 창해로 365",
    "latitude": 37.8054,
    "longitude": 128.9078,
    "description": "동해안 대표 피서 상권 | 관리기관: 강원 강릉시청 | 운영시간: 11:00 ~ 23:00"
  },
  {
    "id": "gov-spot-44",
    "name": "강원 속초 청초호 유원지 엑스포광장",
    "address": "강원 속초시 엑스포로 140",
    "latitude": 38.1965,
    "longitude": 128.5842,
    "description": "속초 시내 관광 요충지 | 관리기관: 강원 속초시청 | 운영시간: 12:00 ~ 22:00"
  },
  {
    "id": "gov-spot-45",
    "name": "충북 청주 오창호수공원 야외광장",
    "address": "충북 청주시 청원구 오창읍 오창공원로 102",
    "latitude": 36.7164,
    "longitude": 127.4285,
    "description": "신도시 오창호수 나들이 스팟 | 관리기관: 청주시 청원구청 | 운영시간: 10:00 ~ 20:30"
  },
  {
    "id": "gov-spot-46",
    "name": "충남 천안 독립기념관 야외 주차장 광장",
    "address": "충남 천안시 동남구 목천읍 삼방로 95",
    "latitude": 36.7845,
    "longitude": 127.2215,
    "description": "역사체험 연계 대형 상권 | 관리기관: 독립기념관 관리처 | 운영시간: 09:00 ~ 18:00"
  },
  {
    "id": "gov-spot-47",
    "name": "전북 전주 덕진공원 전통정자 앞",
    "address": "전북 전주시 덕진구 권삼득로 390",
    "latitude": 35.8488,
    "longitude": 127.1225,
    "description": "🟢 청년 및 소외계층 우대구역 | 관리기관: 전주시 공원관리과 | 운영시간: 11:00 ~ 21:00"
  },
  {
    "id": "gov-spot-48",
    "name": "전남 여수 오동도 주차 광장 진입로",
    "address": "전남 여수시 오동도로 242",
    "latitude": 34.7431,
    "longitude": 127.7654,
    "description": "여수 엑스포 벨트 연계광장 | 관리기관: 전남 여수시청 | 운영시간: 09:00 ~ 21:00"
  },
  {
    "id": "gov-spot-49",
    "name": "전남 순천만국가정원 동문 야외광장",
    "address": "전남 순천시 국가정원1호길 162-11",
    "latitude": 34.9284,
    "longitude": 127.5113,
    "description": "국가정원 세계 정원 박람회 지구 | 관리기관: 순천만정원 관리소 | 운영시간: 09:00 ~ 19:00"
  },
  {
    "id": "gov-spot-50",
    "name": "경북 포항 영일대 해수욕장 시계탑 광장",
    "address": "경북 포항시 북구 두호동 685-1",
    "latitude": 36.0585,
    "longitude": 129.3802,
    "description": "포항 해양스포츠 활성화 특구 | 관리기관: 포항시 북구청 | 운영시간: 14:00 ~ 23:00"
  },
  {
    "id": "gov-spot-51",
    "name": "경북 경주 보문관광단지 호반 광장 야외",
    "address": "경북 경주시 보문로 424-34",
    "latitude": 35.8431,
    "longitude": 129.2785,
    "description": "보문호수 연인 나들이 스팟 | 관리기관: 경상북도관광공사 | 운영시간: 10:00 ~ 22:00"
  },
  {
    "id": "gov-spot-52",
    "name": "경남 창원 용지호수공원 잔디 광장",
    "address": "경남 창원시 성산구 용지로 169",
    "latitude": 35.2312,
    "longitude": 128.6835,
    "description": "창원 도심 중심 수변공원 | 관리기관: 창원시 성산구청 | 운영시간: 11:00 ~ 21:00"
  },
  {
    "id": "gov-spot-53",
    "name": "제주 탑동광장 수변공원 진입광장",
    "address": "제주특별자치도 제주시 임항로 24",
    "latitude": 33.5187,
    "longitude": 126.5255,
    "description": "제주 시내 바다 산책 명당 | 관리기관: 제주 제주시청 | 운영시간: 12:00 ~ 23:00"
  },
  {
    "id": "gov-spot-54",
    "name": "제주 서귀포 자구리공원 광장",
    "address": "제주특별자치도 서귀포시 서귀동 70-1",
    "latitude": 33.2425,
    "longitude": 126.5708,
    "description": "🟢 청년창업 우대 | 이중섭거리 인접 | 관리기관: 서귀포시청 | 운영시간: 12:00 ~ 21:00"
  },
  {
    "id": "gov-spot-55",
    "name": "경기 광주시 시청 행정타운 앞 광장",
    "address": "경기 광주시 행정타운로 50",
    "latitude": 37.4294,
    "longitude": 127.2551,
    "description": "🟢 청년/소외계층 신청 우선권 | 관리기관: 경기 광주시청 | 운영시간: 09:00 ~ 18:00"
  },
  {
    "id": "gov-spot-56",
    "name": "광주 청석공원 시민야외 무대앞",
    "address": "경기 광주시 쌍령동 302-1",
    "latitude": 37.4098,
    "longitude": 127.2691,
    "description": "경안천 수변 문화공원 | 관리기관: 경기 광주시청 공원개발과 | 운영시간: 11:00 ~ 22:00"
  },
  {
    "id": "gov-spot-57",
    "name": "곤지암 도자공원 야외 잔디광장",
    "address": "경기 광주시 곤지암읍 경충대로 727",
    "latitude": 37.3415,
    "longitude": 127.3482,
    "description": "도자박물관 유원지 연계 스팟 | 관리기관: 한국도자재단 | 운영시간: 10:00 ~ 19:00"
  },
  {
    "id": "gov-spot-58",
    "name": "남한산성 도립공원 메인 주차광장",
    "address": "경기 광주시 남한산성면 남한산성로 780",
    "latitude": 37.4789,
    "longitude": 127.1895,
    "description": "안보문화 유산 관광벨트 | 관리기관: 남한산성 세계유산센터 | 운영시간: 09:00 ~ 20:00"
  },
  {
    "id": "gov-spot-59",
    "name": "퇴촌 토마토 테마공원 주차광장",
    "address": "경기 광주시 퇴촌면 광동리 530",
    "latitude": 37.4682,
    "longitude": 127.3225,
    "description": "지역 축제 연계 나들이 상권 | 관리기관: 퇴촌면 사무소 | 운영시간: 10:00 ~ 21:00"
  },
  {
    "id": "gov-spot-60",
    "name": "광주 삼리 체육공원 다목적 운동장옆",
    "address": "경기 광주시 곤지암읍 삼리 110",
    "latitude": 37.3465,
    "longitude": 127.3512,
    "description": "생활체육 단지 활성화 시범구역 | 관리기관: 광주시 체육진흥과 | 운영시간: 11:00 ~ 20:00"
  },
  {
    "id": "gov-spot-61",
    "name": "중대물빛공원 야외 분수 광장",
    "address": "경기 광주시 중대동 246-2",
    "latitude": 37.4112,
    "longitude": 127.2285,
    "description": "가족단위 피크닉 수변 명당 | 관리기관: 경기 광주시청 공원관리과 | 운영시간: 12:00 ~ 21:00"
  },
  {
    "id": "gov-spot-62",
    "name": "경안천 습지생태공원 산책로 광장",
    "address": "경기 광주시 퇴촌면 정지리 525",
    "latitude": 37.4589,
    "longitude": 127.2912,
    "description": "생태관광 생태보존 공원스팟 | 관리기관: 경기 광주시청 환경과 | 운영시간: 09:00 ~ 18:00"
  },
  {
    "id": "gov-spot-63",
    "name": "삼동역 역사 광장 버스정류장앞",
    "address": "경기 광주시 순암로 492",
    "latitude": 37.4215,
    "longitude": 127.2025,
    "description": "경강선 역세권 출퇴근 길목 | 관리기관: 한국철도공사 광주역 | 운영시간: 14:00 ~ 22:00"
  },
  {
    "id": "gov-spot-64",
    "name": "곤지암역 역사 보행자 통행 광장",
    "address": "경기 광주시 곤지암읍 평동리 160",
    "latitude": 37.3382,
    "longitude": 127.3418,
    "description": "경강선 역세권 대학생 통학로 | 관리기관: 한국철도공사 광주역 | 운영시간: 13:00 ~ 21:00"
  },
  {
    "id": "gov-spot-65",
    "name": "광주역 역사 중앙광장 분수대앞",
    "address": "경기 광주시 역동 160-1",
    "latitude": 37.3995,
    "longitude": 127.2588,
    "description": "🟢 청년층 신청 우대 | 경강선 메인 허브 | 관리기관: 한국철도공사 | 운영시간: 12:00 ~ 22:00"
  },
  {
    "id": "gov-spot-66",
    "name": "초월역 역사 앞 공공 버스승강장 광장",
    "address": "경기 광주시 초월읍 쌍동리 302-2",
    "latitude": 37.3712,
    "longitude": 127.2995,
    "description": "경강선 주거단지 인근 출근지 | 관리기관: 한국철도공사 | 운영시간: 11:00 ~ 20:00"
  },
  {
    "id": "gov-spot-67",
    "name": "남한산성 아트홀 야외 문화마당",
    "address": "경기 광주시 회안대로 350-17",
    "latitude": 37.4145,
    "longitude": 127.2558,
    "description": "예술공연 연계 합법구역 | 관리기관: 광주도시관리공사 | 운영시간: 12:00 ~ 21:00"
  },
  {
    "id": "gov-spot-68",
    "name": "경기 광주 공설운동장 주차 진입광장",
    "address": "경기 광주시 경안안길 57",
    "latitude": 37.4124,
    "longitude": 127.2612,
    "description": "경안동 시내 체육특화지구 | 관리기관: 경기 광주시 도시개발과 | 운영시간: 10:00 ~ 20:00"
  },
  {
    "id": "gov-spot-69",
    "name": "태전지구 중앙공원 산책로 입구",
    "address": "경기 광주시 태전동 200",
    "latitude": 37.3912,
    "longitude": 127.2345,
    "description": "⚠️ 대단지 아파트 연계형 공원 | 아파트 장터 융합 | 운영시간: 11:00 ~ 20:00",
    "isApartment": true
  },
  {
    "id": "gov-spot-70",
    "name": "실촌 체육공원 농구장 보행광장",
    "address": "경기 광주시 곤지암읍 곤지암리 200",
    "latitude": 37.3312,
    "longitude": 127.3312,
    "description": "실촌 읍내 체육동호인 연계 | 관리기관: 곤지암읍사무소 | 운영시간: 11:00 ~ 21:00"
  },
  {
    "id": "gov-spot-71",
    "name": "퇴촌면 다목적 체육 광장",
    "address": "경기 광주시 퇴촌면 광동로 60",
    "latitude": 37.4612,
    "longitude": 127.3188,
    "description": "퇴촌 지역 커뮤니티 상권 | 관리기관: 퇴촌면사무소 | 운영시간: 11:00 ~ 20:00"
  },
  {
    "id": "gov-spot-72",
    "name": "오포 공설운동장 야외 주차장",
    "address": "경기 광주시 오포읍 매산리 200",
    "latitude": 37.3512,
    "longitude": 127.2312,
    "description": "오포 대단지 체육나들이 존 | 관리기관: 오포읍 행정복지센터 | 운영시간: 10:00 ~ 20:00"
  }
]
